{"_id":{"$oid":"5a0720b478597fc11004d951"},"stop":"Non-BRTS","code":"103B-D-04","seq":4.0,"stage":1.0,"name":"Aranyeshwar Corner","location":{"type":"Point","coordinates":[73.857675,18.486381]}}
{"_id":{"$oid":"5a0720b478597fc11004d952"},"stop":"Non-BRTS","code":"103B-D-05","seq":5.0,"stage":2.0,"name":"Natubaug","location":{"type":"Point","coordinates":[73.857167,18.48103]}}
{"_id":{"$oid":"5a0720b478597fc11004d953"},"stop":"Non-BRTS","code":"103B-D-07","seq":7.0,"stage":2.0,"name":"Shankar Maharaj Math","location":{"type":"Point","coordinates":[73.857234,18.470738]}}
{"_id":{"$oid":"5a0720b478597fc11004d954"},"stop":"Non-BRTS","code":"103B-D-06","seq":6.0,"stage":2.0,"name":"Padmawati","location":{"type":"Point","coordinates":[73.857244,18.477347]}}
{"_id":{"$oid":"5a0720b478597fc11004d955"},"stop":"Non-BRTS","code":"103B-D-08","seq":8.0,"stage":3.0,"name":"Balajinagar","location":{"type":"Point","coordinates":[73.858154,18.464405]}}
{"_id":{"$oid":"5a0720b478597fc11004d95b"},"stop":"Non-BRTS","code":"103B-D-09","seq":9.0,"stage":3.0,"name":"Bharati Vidyapeeth Gate","location":{"type":"Point","coordinates":[73.8582,18.457434]}}
{"_id":{"$oid":"5a0720b478597fc11004d95d"},"stop":"Non-BRTS","code":"103B-U-03","seq":3.0,"stage":1.0,"name":"Bharati Vidyapeeth Gate","location":{"type":"Point","coordinates":[73.858154,18.457616]}}
{"_id":{"$oid":"5a0720b478597fc11004d95e"},"stop":"Non-BRTS","code":"103B-U-04","seq":4.0,"stage":2.0,"name":"Balajinagar","location":{"type":"Point","coordinates":[73.857973,18.464558]}}
{"_id":{"$oid":"5a0720b478597fc11004d95f"},"stop":"Non-BRTS","code":"103B-U-05","seq":5.0,"stage":2.0,"name":"Shankar Maharaj Math","location":{"type":"Point","coordinates":[73.857067,18.470349]}}